{"fetchTime":1606426131040,"data":[{"id":156,"type":"COVID_AMBULANCE","name":"ДОМ ЗДРАВЉА АДА","city":"АДА","street":"ЈОЖЕФА АТИЛЕ","homeNo":"9","longitude":20.1297865,"latitude":45.7954113,"phone1":"","phone2":"+381 631097776","memo":"радни дан: 7-22\nвикенд: 7-22"},{"id":157,"type":"COVID_AMBULANCE","name":"ОПШТА БОЛНИЦА АЛЕКСИНАЦ","city":"АЛЕКСИНАЦ","street":"МОМЧИЛА ПОПОВИЋА","homeNo":"144","longitude":21.7009718,"latitude":43.5384207,"phone1":"+381 18804215","phone2":"","memo":"радни дан: 0-24\nвикенд: 0-24"},{"id":158,"type":"COVID_AMBULANCE","name":"ДОМ ЗДРАВЉА АЛИБУНАР","city":"АЛИБУНАР","street":"ТРГ СЛОБОДЕ","homeNo":"8","longitude":20.9664953,"latitude":45.0796916,"phone1":"+381 13641063","phone2":"","memo":"радни дан: 7-22\nвикенд: 7-22"},{"id":159,"type":"COVID_AMBULANCE","name":"ДОМ ЗДРАВЉА АПАТИН","city":"АПАТИН","street":"НУШИЋЕВА","homeNo":"1","longitude":18.9773766,"latitude":45.6731417,"phone1":"+381 25773503","phone2":"+381 648292091","memo":"радни дан: 7-22\nвикенд: 7-22"},{"id":160,"type":"COVID_AMBULANCE","name":"ДОМ ЗДРАВЉА АРИЉЕ","city":"АРИЉЕ","street":"ВОЈВОДЕ МИШИЋА","homeNo":"26","longitude":20.0961678,"latitude":43.7498478,"phone1":"","phone2":"+381 648170573","memo":"радни дан: 7-22\nвикенд: 7-22"},{"id":161,"type":"COVID_AMBULANCE","name":"ДОМ ЗДРАВЉА БАБУШНИЦА","city":"БАБУСНИЦА","street":"ИВИЦЕ МИЛАДИНОВИЋА","homeNo":"1","longitude":22.4004417,"latitude":43.0607046,"phone1":"+381 384194","phone2":"+381 606004955","memo":"радни дан: 7-22\nвикенд: 7-22"},{"id":162,"type":"COVID_AMBULANCE","name":"ДОМ ЗДРАВЉА БАЈИНА БАШТА","city":"БАЈИНА БАШТА","street":"МИЛАНА ОБРЕНОВИЋА","homeNo":"72","longitude":19.5577133,"latitude":43.9747038,"phone1":"","phone2":"+381 648170576","memo":"радни дан: 7-22\nвикенд: 7-22"},{"id":163,"type":"COVID_AMBULANCE","name":"ДОМ ЗДРАВЉА БАЧ РЕСПИРАТОРНИ ЦЕНТАР","city":"БАЧ","street":"БАЧКА","homeNo":"2","longitude":19.2305568,"latitude":45.3922484,"phone1":"+381 648940232","phone2":"","memo":"радни дан: 0-24\nвикенд: 0-24"},{"id":164,"type":"COVID_AMBULANCE","name":"ДОМ ЗДРАВЉА БАЧКА ПАЛАНКА","city":"БАЧКА ПАЛАНКА","street":"КРАЉА ПЕТРА И","homeNo":"26","longitude":19.3886563,"latitude":45.2486492,"phone1":"+381 217550384","phone2":"","memo":"радни дан: 7-22\nвикенд: 7-22"},{"id":165,"type":"COVID_AMBULANCE","name":"ДОМ ЗДРАВЉА БАЧКА ТОПОЛА","city":"БАЧКА ТОПОЛА","street":"СВЕТОГ СТЕФАНА","homeNo":"1","longitude":19.6309974,"latitude":45.8216736,"phone1":"+381 24773193","phone2":"+381 646591028","memo":"радни дан: 0-24\nвикенд: 0-24"},{"id":166,"type":"COVID_AMBULANCE","name":"ДОМ ЗДРАВЉА БАЧКИ ПЕТРОВАЦ РЕСПИРАТОРНИ ЦЕНТАР","city":"БАЧКИ ПЕТРОВАЦ","street":"МАРШАЛА ТИТА","homeNo":"6","longitude":19.5918179,"latitude":45.3597129,"phone1":"+381 21780015","phone2":"+381 628022119","memo":"радни дан: 7-22\nвикенд: 7-22"},{"id":167,"type":"COVID_AMBULANCE","name":"ДОМ ЗДРАВЉА БЕЛА ПАЛАНКА","city":"БЕЛА ПАЛАНКА","street":"БРАНИСЛАВА НУШИЋА","homeNo":"2","longitude":21.4204242,"latitude":44.8978536,"phone1":"+381 18853087","phone2":"","memo":"радни дан: 7-22\nвикенд: 7-22"},{"id":168,"type":"COVID_AMBULANCE","name":"ДОМ ЗДРАВЉА БЕЛА ЦРКВА","city":"БЕЛА ЦРКВА","street":"ЈОВАНА ПОПОВИЋА","homeNo":"ББ","longitude":21.4204242,"latitude":44.8978536,"phone1":"+381 13853020","phone2":"","memo":"радни дан: 0-24\nвикенд: 0-24"},{"id":169,"type":"COVID_AMBULANCE","name":"ДОМ ЗДРАВЉА БАРАЈЕВО","city":"БЕОГРАД","street":"ЧЕДОМИРА ЂОИНЧЕВИЋА","homeNo":"95","longitude":20.41542,"latitude":44.58286,"phone1":"+381 698225363","phone2":"+381 698225354","memo":"радни дан: 7-22\nвикенд: 7-22"},{"id":170,"type":"COVID_AMBULANCE","name":"ДОМ ЗДРАВЉА ВОЖДОВАЦ","city":"БЕОГРАД","street":"УСТАНИЧКА","homeNo":"125Б","longitude":20.49178,"latitude":44.78441,"phone1":"+381 112440491","phone2":"+381 628000926","memo":"радни дан: 7-22\nвикенд: 7-22"},{"id":171,"type":"COVID_AMBULANCE","name":"ДОМ ЗДРАВЉА ВРАЧАР","city":"БЕОГРАД","street":"БОЈАНСКА","homeNo":"16","longitude":20.48418,"latitude":44.79726,"phone1":"+381 698851684","phone2":"+381 698851636","memo":"радни дан: 7-22\nвикенд: 7-22"},{"id":172,"type":"COVID_AMBULANCE","name":"ДОМ ЗДРАВЉА ГРОЦКА","city":"БЕОГРАД","street":"СМЕДЕРЕВСКИ ПУТ","homeNo":"ББ","longitude":20.5956868,"latitude":44.7452133,"phone1":"+381 118035121","phone2":"+381 698324140","memo":"радни дан: 0-24\nвикенд: 0-24"},{"id":173,"type":"COVID_AMBULANCE","name":"ДОМ ЗДРАВЉА ЗВЕЗДАРА - АМБУЛАНТА СЕВЕРНИ БУЛЕВАР","city":"БЕОГРАД","street":"ВЕЉКА ДУГОШЕВИЋА","homeNo":"44","longitude":20.4971812,"latitude":44.805303,"phone1":"+381 12416866","phone2":"+381 698231456","memo":"радни дан: 7-22\nвикенд: 7-22"},{"id":174,"type":"COVID_AMBULANCE","name":"ДОМ ЗДРАВЉА ЗЕМУН","city":"БЕОГРАД","street":"ТОПЛИЧКА","homeNo":"8","longitude":20.3819687,"latitude":44.8455749,"phone1":"+381 112616288","phone2":"+381 608871568","memo":"радни дан: 7-22\nвикенд: 7-22"},{"id":175,"type":"COVID_AMBULANCE","name":"ДОМ ЗДРАВЉА ЗЕМУН - ЗДРАВСТВЕНА СТАНИЦА СУРЧИН","city":"БЕОГРАД","street":"БРАЋЕ ПУХАЛОВИЋ","homeNo":"12","longitude":20.2702178,"latitude":44.792293,"phone1":"+381 112616288","phone2":"+381 608871686","memo":"радни дан: 7-22\nвикенд: 7-22"},{"id":176,"type":"COVID_AMBULANCE","name":"ДОМ ЗДРАВЉА ЛАЗАРЕВАЦ","city":"БЕОГРАД","street":"ДР. ЂОРЂА КОВАЧЕВИЋА","homeNo":"27","longitude":20.2746195,"latitude":44.3820986,"phone1":"+381 118121712","phone2":"+381 600457399","memo":"радни дан: 7-22\nвикенд: 7-22"},{"id":177,"type":"COVID_AMBULANCE","name":"ДОМ ЗДРАВЉА МЛАДЕНОВАЦ","city":"БЕОГРАД","street":"КРАЉИЦЕ МАРИЈЕ","homeNo":"15","longitude":20.6958993,"latitude":44.4425017,"phone1":"+381 118241574","phone2":"+381 608225269","memo":"радни дан: 7-22\nвикенд: 7-18"},{"id":178,"type":"COVID_AMBULANCE","name":"ДОМ ЗДРАВЉА НОВИ БЕОГРАД","city":"БЕОГРАД","street":"ОМЛАДИНСКИХ БРИГАДА","homeNo":"104","longitude":20.3980237,"latitude":44.8057338,"phone1":"+381 112095414","phone2":"+381 601013828","memo":"радни дан: 7-22\nвикенд: 7-22"},{"id":179,"type":"COVID_AMBULANCE","name":"ДОМ ЗДРАВЉА ОБРЕНОВАЦ","city":"БЕОГРАД","street":"ВОЈВОДЕ МИШИЋА","homeNo":"231","longitude":20.202362,"latitude":44.655926,"phone1":"+381 118724253","phone2":"+381 648200926","memo":"радни дан: 0-24\nвикенд: 0-24"},{"id":180,"type":"COVID_AMBULANCE","name":"ДОМ ЗДРАВЉА ПАЛИЛУЛА - БОРЧА","city":"БЕОГРАД","street":"ИВАНА МИЛУТИНОВИЋА","homeNo":"10","longitude":20.4580944,"latitude":44.8721765,"phone1":"+381 113324578","phone2":"","memo":"радни дан: 7-18\nвикенд: 7-18"},{"id":181,"type":"COVID_AMBULANCE","name":"ДОМ ЗДРАВЉА ПАЛИЛУЛА - КАРАБУРМА","city":"БЕОГРАД","street":"ПАНА ЂУКИЋА","homeNo":"7","longitude":20.5116579,"latitude":44.8135235,"phone1":"+381 11278223","phone2":"","memo":"радни дан: 7-18\nвикенд: 7-18"},{"id":182,"type":"COVID_AMBULANCE","name":"ДОМ ЗДРАВЉА ПАЛИЛУЛА - СТАРА ПАЛИЛУЛА","city":"БЕОГРАД","street":"КНЕЗ ДАНИЛОВА","homeNo":"16","longitude":20.4750706,"latitude":44.810727,"phone1":"+381 113229260","phone2":"","memo":"радни дан: 7-22\nвикенд: 7-22"},{"id":183,"type":"COVID_AMBULANCE","name":"ДОМ ЗДРАВЉА РАКОВИЦА","city":"БЕОГРАД","street":"СРПСКИХ УДАРНИХ БРИГАДА","homeNo":"6","longitude":20.4548633,"latitude":44.7545784,"phone1":"+381 113052069","phone2":"+381 628856512","memo":"радни дан: 7-22\nвикенд: 7-22"},{"id":184,"type":"COVID_AMBULANCE","name":"ДОМ ЗДРАВЉА САВСКИ ВЕНАЦ","city":"БЕОГРАД","street":"ВОЈВОДЕ МИЛЕНКА","homeNo":"6","longitude":20.4557694,"latitude":44.8048069,"phone1":"+381 113616329","phone2":"+381 648219233","memo":"радни дан: 7-22\nвикенд: 7-22"},{"id":185,"type":"COVID_AMBULANCE","name":"ДОМ ЗДРАВЉА СОПОТ","city":"БЕОГРАД","street":"ЈЕЛИЦЕ МИЛОВАНОВИЋ","homeNo":"12","longitude":20.577637,"latitude":44.5196672,"phone1":"+381 118251223","phone2":"+381 658225345","memo":"радни дан: 0-24\nвикенд: 0-24"},{"id":186,"type":"COVID_AMBULANCE","name":"ДОМ ЗДРАВЉА СТАРИ ГРАД","city":"БЕОГРАД","street":"ТОПЛИЧИН ВЕНАЦ","homeNo":"29","longitude":20.4567466,"latitude":44.8162659,"phone1":"+381 112635344","phone2":"+381 63642062","memo":"радни дан: 0-24\nвикенд: 0-24"},{"id":187,"type":"COVID_AMBULANCE","name":"ДОМ ЗДРАВЉА ЧУКАРИЦА","city":"БЕОГРАД","street":"СТЕВАНА ЂУРЂЕВИЋА ТРОШАРИНЦА","homeNo":"2","longitude":20.40613,"latitude":44.77685,"phone1":"+381 13547235","phone2":"+381 648186999","memo":"радни дан: 7-22\nвикенд: 7-22"},{"id":188,"type":"COVID_AMBULANCE","name":"ДОМ ЗДРАВЉА БЕОЧИН","city":"БЕОЧИН","street":"СВЕТОСАВСКА","homeNo":"ББ","longitude":19.7232887,"latitude":45.2074348,"phone1":"+381 21872888","phone2":"","memo":"радни дан: 7-22\nвикенд: 7-22"},{"id":189,"type":"COVID_AMBULANCE","name":"ДОМ ЗДРАВЉА БЕЧЕЈ","city":"БЕЧЕЈ","street":"БРАЋЕ ТАН","homeNo":"3","longitude":20.0499346,"latitude":45.6150937,"phone1":"+381 216915310","phone2":"+381 628862065","memo":"радни дан: 7-18\nвикенд: 0-24"},{"id":190,"type":"COVID_AMBULANCE","name":"ДОМ ЗДРАВЉА БЛАЦЕ","city":"БЛАЦЕ","street":"БРАЋА ВУКСАНОВИЋ","homeNo":"55","longitude":21.2850166,"latitude":43.2989156,"phone1":"+381 27371153","phone2":"","memo":"радни дан: 7-22\nвикенд: 7-22"},{"id":191,"type":"COVID_AMBULANCE","name":"ДОМ ЗДРАВЉА БОГАТИЋ","city":"БОГАТИЋ","street":"МИЈЕ ЈОВАНОВИЦ","homeNo":"25","longitude":19.4817952,"latitude":44.8300446,"phone1":"","phone2":"+381 698941568","memo":"радни дан: 7-22\nвикенд: 7-22"},{"id":192,"type":"COVID_AMBULANCE","name":"ДОМ ЗДРАВЉА БОЉЕВАЦ","city":"БОЉЕВАЦ","street":"ДРАГИШЕ ПЕТРОВИЋ","homeNo":"41","longitude":21.9521858,"latitude":43.8292039,"phone1":"+381 30463773","phone2":"","memo":"радни дан: 7-22\nвикенд: 7-22"},{"id":193,"type":"COVID_AMBULANCE","name":"БОР АМБУЛАНТА РУДАР","city":"БОР","street":"МОШЕ ПИЈАДЕ","homeNo":"39","longitude":22.0988274,"latitude":44.0711544,"phone1":"+381 030426382","phone2":"","memo":"радни дан: 7-22\nвикенд: 7-22"},{"id":194,"type":"COVID_AMBULANCE","name":"ДОМ ЗДРАВЉА БОР","city":"БОР","street":"НИКОЛЕ КОПЕРНИКА","homeNo":"2","longitude":22.1023037,"latitude":44.0551714,"phone1":"+381 30423777","phone2":"","memo":"радни дан: 7-15\nвикенд: -"},{"id":195,"type":"COVID_AMBULANCE","name":"ДОМ ЗДРАВЉА БОСИЛЕГРАД","city":"БОСИЛЕГРАД","street":"ПОРОДИН","homeNo":"11","longitude":22.4771652,"latitude":42.4987623,"phone1":"+381 17877124","phone2":"","memo":"радни дан: 7-22\nвикенд: 7-22"},{"id":196,"type":"COVID_AMBULANCE","name":"ДОМ ЗДРАВЉА БУЈАНОВАЦ","city":"БУЈАНОВАЦ","street":"КАРАЂОРЂА ПЕТРОВИЋА","homeNo":"328","longitude":21.7759969,"latitude":42.4633856,"phone1":"+381 600194193","phone2":"+381 646339952","memo":"радни дан: 7-22\nвикенд: 7-22"},{"id":197,"type":"COVID_AMBULANCE","name":"ДОМ ЗДРАВЉА","city":"ВАЉЕВО","street":"ТРГ ВЛАДИКЕ НИКОЛАЈА","homeNo":"5","longitude":19.9182769,"latitude":44.280112,"phone1":"+381 14239798","phone2":"","memo":"радни дан: 0-24\nвикенд: 0-24"},{"id":198,"type":"COVID_AMBULANCE","name":"ЗАВОД ЗА ЈАВНО ЗДРАВЉЕ","city":"ВАЉЕВО","street":"ВЛАДИКЕ НИКОЛАЈА","homeNo":"5","longitude":19.882336,"latitude":44.2744222,"phone1":"+381 14236731","phone2":"","memo":"радни дан: 7-15\nвикенд: -"},{"id":199,"type":"COVID_AMBULANCE","name":"ОПШТА БОЛНИЦА","city":"ВАЉЕВО","street":"ПАСТЕРОВА","homeNo":"ББ","longitude":19.89655,"latitude":44.2770184,"phone1":"+381 14295295","phone2":"","memo":"радни дан: 0-24\nвикенд: 0-24"},{"id":200,"type":"COVID_AMBULANCE","name":"ДОМ ЗДРАВЉА ВЛАДИМИРЦИ","city":"ВЛАДИМИРЦИ","street":"СВЕТОГ САВЕ","homeNo":"17","longitude":19.7864846,"latitude":44.619936,"phone1":"+381 15514712","phone2":"+381 648220268","memo":"радни дан: 7-22\nвикенд: 7-22"},{"id":201,"type":"COVID_AMBULANCE","name":"ДОМ ЗДРАВЉА ВЛАДИЧИН ХАН","city":"ВЛАДИЧИН ХАН","street":"НИКОЛЕ ТЕСЛЕ","homeNo":"66","longitude":22.064963,"latitude":42.7059854,"phone1":"+381 624210134","phone2":"","memo":"радни дан: 7-22\nвикенд: 7-22"},{"id":202,"type":"COVID_AMBULANCE","name":"ЗДРАВСТВЕНИ ЦЕНТАР ВРАЊЕ","city":"ВРАЊЕ","street":"ЦЕТИЊСКА","homeNo":"2","longitude":21.8929352,"latitude":42.5571412,"phone1":"+381 177404750","phone2":"","memo":"радни дан: 7-22\nвикенд: 7-22"},{"id":203,"type":"COVID_AMBULANCE","name":"ДОМ ЗДРАВЉА ВРБАС","city":"ВРБАС","street":"ПАЛИХ БОРАЦА","homeNo":"20","longitude":19.6385443,"latitude":45.5710416,"phone1":"+381 217954434","phone2":"+381 62780289","memo":"радни дан: 0-24\nвикенд: 0-24"},{"id":204,"type":"COVID_AMBULANCE","name":"ДОМ ЗДРАВЉА ВРЊАЧКА БАЊА","city":"ВРЊАЧКА БАЊА","street":"НОВО СЕЛО","homeNo":"103","longitude":20.7823026,"latitude":44.9874832,"phone1":"+381 36632255","phone2":"+381 605762280","memo":"радни дан: 7-22\nвикенд: 7-22"},{"id":205,"type":"COVID_AMBULANCE","name":"ДОМ ЗДРАВЉА ВРШАЦ","city":"ВРШАЦ","street":"АБРАШЕВИЋЕВА","homeNo":"ББ","longitude":21.3082603,"latitude":45.1206495,"phone1":"+381 1380900","phone2":"","memo":"радни дан: 0-24\nвикенд: 0-24"},{"id":206,"type":"COVID_AMBULANCE","name":"ДОМ ЗДРАВЉА ГАДЖИН ХАН","city":"ГАДЖИН ХАН","street":"МИЛОША ОБИЛИЋА","homeNo":"10","longitude":22.0317456,"latitude":43.226418,"phone1":"+381 18850155","phone2":"","memo":"радни дан: 7-18\nвикенд: 7-18"},{"id":207,"type":"COVID_AMBULANCE","name":"ЗДРАВСТВЕНА СТАНИЦА ДОЊИ ДУШНИК","city":"ГАДЖИН ХАН","street":"ДОЊИ ДУШНИК","homeNo":"ББ","longitude":22.0782065,"latitude":43.156666,"phone1":"+381 18847002","phone2":"","memo":"радни дан: 0-24\nвикенд: 0-24"},{"id":208,"type":"COVID_AMBULANCE","name":"ДОМ ЗДРАВЉА ГОРЊИ МИЛАНОВАЦ","city":"ГОРЊИ МИЛАНОВАЦ","street":"ТИХОМИРА МАТИЈЕВИЋА","homeNo":"1","longitude":20.4610158,"latitude":44.0226258,"phone1":"+381 32710051","phone2":"+381 648090584","memo":"радни дан: 7-22\nвикенд: 7-22"},{"id":209,"type":"COVID_AMBULANCE","name":"КБЦ ПРИШТИНА","city":"ГРАЧАНИЦА","street":"ДРАГАНА РИСТИЋА","homeNo":"ББ","longitude":21.1883274,"latitude":42.6004747,"phone1":"+381 3864804","phone2":"","memo":"радни дан: 0-24\nвикенд: 0-24"},{"id":210,"type":"COVID_AMBULANCE","name":"ДОМ ЗДРАВЉА ЛУЧАНИ ЗДРАВСТВЕНА СТАНИЦА ГУЧА","city":"ГУЧА","street":"РЕПУБЛИКЕ","homeNo":"ББ","longitude":20.2258472,"latitude":43.7817823,"phone1":"+381 328550520","phone2":"","memo":"радни дан: 7-19\nвикенд: 7-19"},{"id":211,"type":"COVID_AMBULANCE","name":"ДОМ ЗДРАВЉА ДЕСПОТОВАЦ","city":"ДЕСПОТОВАЦ","street":"САВЕЗ БОРАЦА","homeNo":"74","longitude":21.4408978,"latitude":44.093138,"phone1":"+381 35611210","phone2":"+381 62287883","memo":"радни дан: 0-24\nвикенд: 0-24"},{"id":212,"type":"COVID_AMBULANCE","name":"ДОМ ЗДРАВЉА ДИМИТРОВГРАД","city":"ДИМИТРОВГРАД","street":"ХРИСТО СМИРНЕНСКИ","homeNo":"2","longitude":22.7735684,"latitude":43.0137442,"phone1":"+381 10361266","phone2":"","memo":"радни дан: 0-24\nвикенд: 0-24"},{"id":213,"type":"COVID_AMBULANCE","name":"ДОМ ЗДРАВЉА ДОЉЕВАЦ","city":"ДОЉЕВАЦ","street":"ДР МИХАЈЛА ТИМОТИЈЕВИЋА","homeNo":"6","longitude":21.8315114,"latitude":43.2003169,"phone1":"+381 270219","phone2":"","memo":"радни дан: 7-22\nвикенд: 7-22"},{"id":214,"type":"COVID_AMBULANCE","name":"ДОМ ЗДРАВЉА ДОЊА ГУШТЕРИЦА","city":"ДОЊА ГУШТЕРИЦА","street":"ДОЊА ГУШТЕРИЦА","homeNo":"","longitude":21.1780465,"latitude":42.5449195,"phone1":"+381 3886894","phone2":"","memo":"радни дан: 0-24\nвикенд: 0-24"},{"id":215,"type":"COVID_AMBULANCE","name":"ДОМ ЗДРАВЉА ЖАБАЉ","city":"ЖАБАЉ","street":"НИКОЛЕ ТЕСЛЕ","homeNo":"66","longitude":20.0634998,"latitude":45.3715989,"phone1":"","phone2":"+381 648057236","memo":"радни дан: 7-18\nвикенд: 7-18"},{"id":216,"type":"COVID_AMBULANCE","name":"ДОМ ЗДРАВЉА ЖИТИШТЕ","city":"ЖИТИШТЕ","street":"ВОЈВОЂАНСКА","homeNo":"16","longitude":20.5554485,"latitude":45.4839653,"phone1":"+381 233821010","phone2":"","memo":"радни дан: 7-24\nвикенд: 0-24"},{"id":217,"type":"COVID_AMBULANCE","name":"ДОМ ЗДРАВЉА ЖИТОРАЂА","city":"ЖИТОРАЂА","street":"ТОПЛИЧКИ ХЕРОЈИ","homeNo":"55","longitude":21.7120701,"latitude":43.1889834,"phone1":"+381 278362079","phone2":"","memo":"радни дан: 7-22\nвикенд: 7-22"},{"id":218,"type":"COVID_AMBULANCE","name":"ЗДРАВСТВЕНИ ЦЕНТАР ЗАЈЕЧАР","city":"ЗАЈЕЧАР","street":"РАСАДНИЧКА","homeNo":"ББ","longitude":22.2899294,"latitude":43.8933832,"phone1":"","phone2":"+381 648601485","memo":"радни дан: 0-24\nвикенд: 0-24"},{"id":219,"type":"COVID_AMBULANCE","name":"ДОМ ЗДРАВЉА ЗВЕЧАН","city":"ЗВЕЧАН","street":"БУБЕ МИХАЈЛОВИЋ","homeNo":"","longitude":20.8398961,"latitude":42.9079218,"phone1":"+381 28664893","phone2":"","memo":"радни дан: 0-24\nвикенд: 0-24"},{"id":220,"type":"COVID_AMBULANCE","name":"ДОМ ЗДРАВЉА ДР. БОШКО ВРЕБАЛОВ ЗРЕЊАНИН","city":"ЗРЕЊАНИН","street":"БАРАЊСКА","homeNo":"18","longitude":20.4211403,"latitude":45.377533,"phone1":"","phone2":"+381 648279395","memo":"радни дан: 7-22\nвикенд: 7-22"},{"id":221,"type":"COVID_AMBULANCE","name":"ДОМ ЗДРАВЉА ЗУБИН ПОТОК","city":"ЗУБИН ПОТОК","street":"ВОЈВОДЕ РАДА","homeNo":"10","longitude":20.6864386,"latitude":42.9135314,"phone1":"+381 2846041","phone2":"","memo":"радни дан: 0-24\nвикенд: 0-24"},{"id":222,"type":"COVID_AMBULANCE","name":"ДОМ ЗДРАВЉА ИВАЊИЦА","city":"ИВ��ЊИЦА","street":"13. СЕПТЕМБРА","homeNo":"39","longitude":20.22598,"latitude":43.5877419,"phone1":"","phone2":"+381 648647153","memo":"радни дан: 0-24\nвикенд: 0-24"},{"id":223,"type":"COVID_AMBULANCE","name":"ДОМ ЗДРАВЉА ДР МИЛОРАД - МИКА ПАВЛОВИЋ ИНЂИЈА","city":"ИНЂИЈА","street":"СРПСКОЦРКВЕНА","homeNo":"5","longitude":20.077342,"latitude":45.0466771,"phone1":"+381 22561282","phone2":"","memo":"радни дан: 7-22\nвикенд: 7-22"},{"id":224,"type":"COVID_AMBULANCE","name":"ДОМ ЗДРАВЉА ИРИГ","city":"ИРИГ","street":"ВОЈВОДЕ ПУТНИКА","homeNo":"5","longitude":19.8615679,"latitude":45.0991189,"phone1":"","phone2":"+381 628881095","memo":"радни дан: 7-22\nвикенд: 7-22"},{"id":225,"type":"COVID_AMBULANCE","name":"ДОМ ЗДРАВЉА ЈАГОДИНА","city":"ЈАГОДИНА","street":"КАРАЂОРЂЕВА","homeNo":"ББ","longitude":21.2443699,"latitude":43.9798906,"phone1":"+381 648198144","phone2":"+381 648198145","memo":"радни дан: 0-24\nвикенд: 0-24"},{"id":226,"type":"COVID_AMBULANCE","name":"ДОМ ЗДРАВЉА КАЊИЖА","city":"КАЊИЖА","street":"КАРАЂОРЂЕВА","homeNo":"53","longitude":20.0516179,"latitude":46.0651171,"phone1":"+381 24874213","phone2":"","memo":"радни дан: 7-22\nвикенд: 7-22"},{"id":227,"type":"COVID_AMBULANCE","name":"ДОМ ЗДРАВЉА КИКИНДА","city":"КИКИНДА","street":"СВЕТОСАВСКА","homeNo":"53","longitude":20.4592399,"latitude":45.8260415,"phone1":"+381 230316204","phone2":"","memo":"радни дан: 7-22\nвикенд: 7-22"},{"id":228,"type":"COVID_AMBULANCE","name":"ОПШТА БОЛНИЦА КИКИНДА","city":"КИКИНДА","street":"ЂУРЕ ЈАКШИЋА","homeNo":"110","longitude":20.4789012,"latitude":45.8334367,"phone1":"","phone2":"+381 648865926","memo":"радни дан: 0-24\nвикенд: 0-24"},{"id":229,"type":"COVID_AMBULANCE","name":"ЗДРАВСТВЕНИ ЦЕНТАР КЛАДОВО","city":"КЛАДОВО","street":"ДУНАВСКА","homeNo":"1","longitude":22.6116657,"latitude":44.6112608,"phone1":"+381 19801631","phone2":"+381 698838014","memo":"радни дан: 7-22\nвикенд: 7-22"},{"id":230,"type":"COVID_AMBULANCE","name":"ЗДРАВСТВЕНИ ЦЕНТАР КЊАЖЕВАЦ","city":"КЊАЖЕВАЦ","street":"4. ЈУЛИ","homeNo":"2","longitude":22.2474567,"latitude":43.563904,"phone1":"+381 19731526","phone2":"+381 648950052","memo":"радни дан: 0-24\nвикенд: 0-24"},{"id":231,"type":"COVID_AMBULANCE","name":"ДОМ ЗДРАВЉА КОВАЧИЦА","city":"КОВАЧИЦА","street":"ШТУРОВА","homeNo":"42","longitude":20.6140821,"latitude":45.1125692,"phone1":"","phone2":"+381 628082033","memo":"радни дан: 0-24\nвикенд: 0-24"},{"id":232,"type":"COVID_AMBULANCE","name":"ДОМ ЗДРАВЉА КОВИН","city":"КОВИН","street":"ТРГ ОСЛОБОДЈЕЊА","homeNo":"4","longitude":20.9776231,"latitude":44.7428392,"phone1":"+381 13744911","phone2":"","memo":"радни дан: 0-24\nвикенд: 0-24"},{"id":233,"type":"COVID_AMBULANCE","name":"ДОМ ЗДРАВЉА КОСЈЕРИЋ","city":"КОСЈЕРИЋ","street":"СТАНОЈА ПАВЛОВИЋА","homeNo":"2","longitude":19.911824,"latitude":43.9935048,"phone1":"","phone2":"+381 648170572","memo":"радни дан: 7-22\nвикенд: 7-22"},{"id":234,"type":"COVID_AMBULANCE","name":"ДОМ ЗДРАВЉА КОСОВСКА МИТРОВИЦА","city":"КОСОВСКА МИТРОВИЦА","street":"ДЖОНА КЕНЕДИЈА","homeNo":"ББ","longitude":20.8656033,"latitude":42.898703,"phone1":"+381 28425464","phone2":"","memo":"радни дан: 0-24\nвикенд: 0-24"},{"id":235,"type":"COVID_AMBULANCE","name":"ЗАВОД ЗА ЈАВНО ЗДРАВЉЕ ПРИШТИНА – КОСОВСКА МИТРОВИЦА","city":"КОСОВСКА МИТРОВИЦА","street":"АНРИ ДИНАНА","homeNo":"ББ","longitude":20.8612818,"latitude":42.8917725,"phone1":"+381 28498275","phone2":"+381 648252820","memo":"радни дан: 0-24\nвикенд: 0-24"},{"id":236,"type":"COVID_AMBULANCE","name":"ДОМ ЗДРАВЉА КОЦЕЉЕВА","city":"КОЦЕЉЕВА","street":"НЕМАЊИНА","homeNo":"8","longitude":19.8220363,"latitude":44.4626881,"phone1":"+381 15557280","phone2":"+381 648040672","memo":"радни дан: 7-22\nвикенд: 7-22"},{"id":237,"type":"COVID_AMBULANCE","name":"ДОМ ЗДРАВЉА КРАЉЕВО","city":"КРАЉЕВО","street":"ЦАРА ЛАЗАРА","homeNo":"63","longitude":20.6913938,"latitude":43.7230402,"phone1":"+381 3630177","phone2":"+381 605762280","memo":"радни дан: 7-22\nвикенд: 7-22"},{"id":238,"type":"COVID_AMBULANCE","name":"ДОМ ЗДРАВЉА КРУПАЊ","city":"КРУПАЊ","street":"ВЛАДЕ ЗЕЧЕВИЋА","homeNo":"61","longitude":19.3688268,"latitude":44.3663741,"phone1":"+381 15710437","phone2":"","memo":"радни дан: 7-22\nвикенд: 7-22"},{"id":239,"type":"COVID_AMBULANCE","name":"ДОМ ЗДРАВЉА","city":"КУРШУМЛИЈА","street":"ДР МЕЛГАРДА","homeNo":"1","longitude":21.2717888,"latitude":43.1415126,"phone1":"+381 27380747","phone2":"+381 648227060","memo":"радни дан: 7-22\nвикенд: 7-22"},{"id":240,"type":"COVID_AMBULANCE","name":"ДОМ ЗДРАВЉА","city":"ЛАЈКОВАЦ","street":"СВЕТОГ САВЕ","homeNo":"ББ","longitude":20.1609457,"latitude":44.3694931,"phone1":"+381 143431237","phone2":"","memo":"радни дан: 7-22\nвикенд: 7-22"},{"id":241,"type":"COVID_AMBULANCE","name":"ДОМ ЗДРАВЉА ЛЕПОСАВИЋ","city":"ЛЕПОСАВИЋ","street":"24. НОВЕМБРА","homeNo":"ББ","longitude":20.8049891,"latitude":43.1014119,"phone1":"+381 2883135","phone2":"","memo":"радни дан: 0-24\nвикенд: 0-24"},{"id":242,"type":"COVID_AMBULANCE","name":"ДОМ ЗДРАВЉА ДР \"МИЛЕНКО МАРИН\" ЛОЗНИЦА","city":"ЛОЗНИЦА","street":"БОЛИЧКА","homeNo":"65","longitude":19.2298283,"latitude":44.5370657,"phone1":"+381 15892540","phone2":"+381 64892540","memo":"радни дан: 7-22\nвикенд: 7-22"},{"id":243,"type":"COVID_AMBULANCE","name":"ДОМ ЗДРАВЉА ЛУЧАНИ ЗДРАВЕНА СТАНИЦА ЛУЧАНИ","city":"ЛУЧАНИ","street":"ЈУГОСЛОВЕНСКЕ АРМИЈЕ","homeNo":"ББ","longitude":20.1360244,"latitude":43.8589099,"phone1":"+381 32817124","phone2":"","memo":"радни дан: 7-19\nвикенд: 7-19"},{"id":244,"type":"COVID_AMBULANCE","name":"ДОМ ЗДРАВЉА ЉУБОВИЈЕ","city":"ЉУБОВИЈА","street":"ВОЈВОДЕ МИШИЋА","homeNo":"58","longitude":19.3704944,"latitude":44.1883119,"phone1":"+381 15651826","phone2":"","memo":"радни дан: 7-22\nвикенд: 7-22"},{"id":245,"type":"COVID_AMBULANCE","name":"ДОМ ЗДРАВЉА ДР ВЕРОЉУБ ЦАКИЋ","city":"МАЈДАНПЕК","street":"КАПЕТАНСКА","homeNo":"30","longitude":21.9407544,"latitude":44.4244688,"phone1":"+381 30584552","phone2":"+381 698494139","memo":"радни дан: 0-24\nвикенд: 0-24"},{"id":246,"type":"COVID_AMBULANCE","name":"ДОМ ЗДРАВЉА МАЛИ ЗВОРНИК","city":"МАЛИ ЗВОРНИК","street":"РИБАРСКА","homeNo":"25","longitude":19.1028374,"latitude":44.3738503,"phone1":"+381 15472058","phone2":"","memo":"радни дан: 7-22\nвикенд: 7-22"},{"id":247,"type":"COVID_AMBULANCE","name":"ДОМ ЗДРАВЉА МАЛИ ИЂОШ","city":"МАЛИ ИЂОШ","street":"ЗАНАТЛИЈСКА","homeNo":"1","longitude":19.6664221,"latitude":45.7058411,"phone1":"","phone2":"+381 631184305","memo":"радни дан: 0-24\nвикенд: 0-24"},{"id":248,"type":"COVID_AMBULANCE","name":"ДОМ ЗДРАВЉА МЕРОШИНА","city":"МЕРОШИНА","street":"ЦАРА ЛАЗАРА","homeNo":"","longitude":21.7213288,"latitude":43.2831124,"phone1":"","phone2":"+381 638106198","memo":"радни дан: 7-22\nвикенд: 7-22"},{"id":249,"type":"COVID_AMBULANCE","name":"ДОМ ЗДРАВЉА","city":"МИОНИЦА","street":"КНЕЗА ГРБОВИЋА","homeNo":"37","longitude":20.087866,"latitude":44.2483491,"phone1":"+381 143421124","phone2":"","memo":"радни дан: 7-22\nвикенд: 7-22"},{"id":250,"type":"COVID_AMBULANCE","name":"ЗДРАВСТВЕНИ ЦЕНТАР НЕГОТИН","city":"НЕГОТИН","street":"БАДЊЕВСКА","homeNo":"4","longitude":22.5280022,"latitude":44.2319608,"phone1":"+381 065746","phone2":"","memo":"радни дан: 7-22\nвикенд: 7-22"},{"id":251,"type":"COVID_AMBULANCE","name":"ДОМ ДРАВЉА НИШ (ЦЕНТРАЛНИ ОБЈЕКАТ)","city":"НИШ","street":"ВОЈВОДЕ ТАНКОСИЋА","homeNo":"15","longitude":21.9079345,"latitude":43.3227737,"phone1":"+381 70303503","phone2":"+381 694555168","memo":"радни дан: 7-22\nвикенд: 7-22"},{"id":252,"type":"COVID_AMBULANCE","name":"ЗА ЧАИР (ИНФУЗИОНИ ЦЕНТАР)","city":"НИШ","street":"ЗЕТСКА","homeNo":"ББ","longitude":21.9113428,"latitude":43.3145802,"phone1":"+381 184235988","phone2":"+381 694555212","memo":"радни дан: 7-22\nвикенд: 7-22"},{"id":253,"type":"COVID_AMBULANCE","name":"ДОМ ЗДРАВЉА НОВА ВАРОШ","city":"НОВА ВАРОШ","street":"СЛОБОДАНА НИКАЧЕВИЋА","homeNo":"8","longitude":19.7996233,"latitude":43.4599545,"phone1":"","phone2":"+381 648170575","memo":"радни дан: 7-22\nвикенд: 7-22"},{"id":254,"type":"COVID_AMBULANCE","name":"ДОМ ЗДРАВЉА СРПСКА ЦРЊА","city":"НОВА ЦРЊА","street":"ПАТРИЈАРХА АРСЕНИЈА ЧАРНОЈЕВИЋА","homeNo":"15","longitude":20.6895556,"latitude":45.7261502,"phone1":"+381 23811022","phone2":"","memo":"радни дан: 7-22\nвикенд: 7-22"},{"id":255,"type":"COVID_AMBULANCE","name":"ДОМ ЗДРАВЉА НОВИ БЕЧЕЈ","city":"НОВИ БЕЧЕЈ","street":"ТРГ ОСЛОБОЂЕЊА","homeNo":"2","longitude":20.1317832,"latitude":45.5947248,"phone1":"","phone2":"+381 600809413","memo":"радни дан: 7-22\nвикенд: 7-22"},{"id":256,"type":"COVID_AMBULANCE","name":"ДОМ ЗДРАВЉА НОВИ КНЕЖЕВАЦ","city":"НОВИ КНЕЖЕВАЦ","street":"КРАЉА ПЕТРА И","homeNo":"85","longitude":20.1012161,"latitude":46.0407643,"phone1":"","phone2":"","memo":"радни дан: 0-24\nвикенд: 0-24"},{"id":257,"type":"COVID_AMBULANCE","name":"ДОМ ЗДРАВЉА НОВИ ПАЗАР","city":"НОВИ ПАЗАР","street":"ДИМИТРИЈА ТУЦОВИЋА","homeNo":"2","longitude":20.5116758,"latitude":43.1339173,"phone1":"+381 20311077","phone2":"","memo":"радни дан: 7-22\nвикенд: 7-22"},{"id":258,"type":"COVID_AMBULANCE","name":"ДОМ ЗДРАВЉА НОВИ САД РЕСПИРАТОРНИ ЦЕНТАР ЈОВАН ЈОВАНОВИЋ ЗМАЈ - ЗА ОДРАСЛЕ","city":"НОВИ САД","street":"ЗМАЈ ОГЊЕНА ВУКА ","homeNo":"24","longitude":19.8368883,"latitude":45.2613704,"phone1":"+381 214879457","phone2":"","memo":"радни дан: 0-24\nвикенд: 0-24"},{"id":259,"type":"COVID_AMBULANCE","name":"ДОМ ЗДРАВЉА НОВИ САД РЕСПИРАТОРНИ ЦЕНТАР ЈОВАН ЈОВАНОВИЋ ЗМАЈ - ЗА ТРУДНИЦЕ","city":"НОВИ САД","street":"ЗМАЈ ОГЊЕНА ВУКА ","homeNo":"24","longitude":19.8368883,"latitude":45.2613704,"phone1":"+381 214879570","phone2":"","memo":"радни дан: 7-18\nвикенд: 7-15"},{"id":295,"type":"COVID_AMBULANCE","name":"ДОМ ЗДРАВЉА ТРГОВИШТЕ","city":"ТРГОВИШТЕ","street":"КРАЉА ПЕТРА ПРВОГ","homeNo":"81","longitude":22.0810316,"latitude":42.3646943,"phone1":"+381 17452294","phone2":"","memo":"радни дан: 0-24\nвикенд: 0-24"},{"id":260,"type":"COVID_AMBULANCE","name":"ДОМ ЗДРАВЉА НОВИ САД РЕСПИРАТОРНИ ЦЕНТАР НОВО НАСЕЉЕ - ЗА ДЕЦУ","city":"НОВИ САД","street":"БУЛЕВАР СЛОБОДАНА ЈОВАНОВИЋА","homeNo":"9","longitude":19.805146,"latitude":45.2509157,"phone1":"+381 214879225","phone2":"","memo":"радни дан: 0-24\nвикенд: 0-24"},{"id":261,"type":"COVID_AMBULANCE","name":"ДОМ ЗДРАВЉА НОВИ САД РЕСПИРАТОРНИ ЦЕНТАР НОВО НАСЕЉЕ - ЗА ОДРАСЛЕ","city":"НОВИ САД","street":"БУЛЕВАР СЛОБОДАНА ЈОВАНОВИЋА","homeNo":"2","longitude":19.805146,"latitude":45.2509157,"phone1":"+381 214879213","phone2":"","memo":"радни дан: 0-24\nвикенд: -"},{"id":262,"type":"COVID_AMBULANCE","name":"ДОМ ЗДРАВЉА ОПОВО","city":"ОПОВО","street":"БОРИСА КИДРИЧА","homeNo":"6","longitude":20.4237092,"latitude":45.0524641,"phone1":"","phone2":"+381 628803155","memo":"радни дан: 0-24\nвикенд: 0-24"},{"id":263,"type":"COVID_AMBULANCE","name":"ДОМ ЗДРАВЉА","city":"ОСЕЧИНА","street":"МИЛЕНКА ПАВЛОВИЋА","homeNo":"13","longitude":19.6047568,"latitude":44.37194,"phone1":"+381 14315019","phone2":"","memo":"радни дан: 7-22\nвикенд: 7-22"},{"id":264,"type":"COVID_AMBULANCE","name":"ДОМ ЗДРАВЉА ПАНЧЕВО","city":"ПАНЧЕВО","street":"ЗМАЈ ЈОВИНА","homeNo":"10","longitude":20.6435074,"latitude":44.8721248,"phone1":"","phone2":"+381 62873110","memo":"радни дан: 0-24\nвикенд: 0-24"},{"id":265,"type":"COVID_AMBULANCE","name":"ДОМ ЗДРАВЉА ПАРАЋИН","city":"ПАРАЋИН","street":"МАЈОРА МАРКА","homeNo":"10","longitude":21.4140067,"latitude":43.8645055,"phone1":"+381 358155241","phone2":"+381 62562820","memo":"радни дан: 7-22\nвикенд: 7-22"},{"id":266,"type":"COVID_AMBULANCE","name":"ЗДРАВСТВЕНИ ЦЕНТАР ГЊИЛАНЕ","city":"ПАСЈАНЕ ГЊИЛАНЕ","street":"ПАСЈАНЕ","homeNo":"","longitude":21.4965963,"latitude":42.4020575,"phone1":"+381 32874208","phone2":"","memo":"радни дан: 0-24\nвикенд: 0-24"},{"id":267,"type":"COVID_AMBULANCE","name":"ДОМ ЗДРАВЉА ДР ДРАГАН ФУНДУК ПЕЋИНЦИ","city":"ПЕЋИНЦИ","street":"ЈОВЕ НЕГУШЕВИЋА","homeNo":"3","longitude":19.9645629,"latitude":44.9084267,"phone1":"","phone2":"+381 62789197","memo":"радни дан: 0-24\nвикенд: 0-24"},{"id":268,"type":"COVID_AMBULANCE","name":"ДОМ ЗДРАВЉА ПИРОТ - АМБУЛАНТА ТИЈАБАРА","city":"ПИРОТ","street":"ПАЈЕ ЈОВАНОВИЋА","homeNo":"46","longitude":22.5934448,"latitude":43.1632957,"phone1":"+381 10311958","phone2":"","memo":"радни дан: 7-22\nвикенд: 7-22"},{"id":269,"type":"COVID_AMBULANCE","name":"ОПШТА БОЛНИЦА","city":"ПИРОТ","street":"ВОЈВОД МОМЧИЛА","homeNo":"1","longitude":22.5649768,"latitude":43.1594518,"phone1":"+381 10305371","phone2":"","memo":"радни дан: 7-19\nвикенд: 7-19"},{"id":270,"type":"COVID_AMBULANCE","name":"ДОМ ЗДРАВЉА ПЛАНДИШТЕ","city":"ПЛАНДИШТЕ","street":"КАРАЂОРЂЕВА","homeNo":"13","longitude":21.1226573,"latitude":45.2304409,"phone1":"","phone2":"+381 628046506","memo":"радни дан: 7-22\nвикенд: 7-22"},{"id":271,"type":"COVID_AMBULANCE","name":"ДОМ ЗДРАВЉА ПОЖЕГА","city":"ПОЖЕГА","street":"ЈУГ БОГДАНОВА","homeNo":"1","longitude":20.0305235,"latitude":43.8453657,"phone1":"","phone2":"+381 648170571","memo":"радни дан: 7-22\nвикенд: 7-22"},{"id":272,"type":"COVID_AMBULANCE","name":"ДОМ ЗДРАВЉА ПРЕШЕВО","city":"ПРЕШЕВО","street":"15. НОВЕМБАРА","homeNo":"88","longitude":21.6530383,"latitude":42.3052714,"phone1":"+381 17669194","phone2":"+381 603335762","memo":"радни дан: 7-22\nвикенд: 7-22"},{"id":273,"type":"COVID_AMBULANCE","name":"ДОМ ЗДРАВЉА ПРИБОЈ","city":"ПРИБОЈ","street":"ЛИМСКА","homeNo":"18","longitude":19.5383745,"latitude":43.5636514,"phone1":"","phone2":"+381 648170577","memo":"радни дан: 7-22\nвикенд: 7-22"},{"id":274,"type":"COVID_AMBULANCE","name":"ДОМ ЗДРАВЉА ПРИЈЕПОЉЕ","city":"ПРИЈЕПОЉЕ","street":"РАЈКА ДИВЦА","homeNo":"2","longitude":19.6640313,"latitude":43.3899244,"phone1":"","phone2":"+381 648170578","memo":"радни дан: 7-22\nвикенд: 7-22"},{"id":275,"type":"COVID_AMBULANCE","name":"ДОМ ЗДРАВЉА ПРОКУПЉЕ","city":"ПРОКУПЉЕ","street":"ЋИРИЛА И МЕТОДИЈА","homeNo":"4","longitude":21.5976414,"latitude":43.2442414,"phone1":"+381 27322634","phone2":"","memo":"радни дан: 0-24\nвикенд: 0-24"},{"id":276,"type":"COVID_AMBULANCE","name":"ДОМ ЗДРАВЉА РАЖАЊ","city":"РАЖАЊ","street":"ДР МИЛОРАДА МИХАЈЛОВИЋА","homeNo":"5","longitude":21.5485217,"latitude":43.6792869,"phone1":"+381 373841480","phone2":"+381 668065974","memo":"радни дан: 0-24\nвикенд: 0-24"},{"id":277,"type":"COVID_AMBULANCE","name":"ДОМ ЗДРАВЉА РАШКА","city":"РАШКА","street":"ДР ЈОВАНОВИЋА","homeNo":"4","longitude":20.6149516,"latitude":43.2856632,"phone1":"+381 36737766","phone2":"+381 628816440","memo":"радни дан: 0-24\nвикенд: 0-24"},{"id":278,"type":"COVID_AMBULANCE","name":"ДОМ ЗДРАВЉА РЕКОВАЦ","city":"РЕКОВАЦ","street":"КРАЉА ПЕТРА И","homeNo":"1","longitude":21.0893417,"latitude":43.8655814,"phone1":"+381 648397420","phone2":"+381 648397424","memo":"радни дан: 0-24\nвикенд: 0-24"},{"id":279,"type":"COVID_AMBULANCE","name":"ДОМ ЗДРАВЉА РУМА","city":"РУМА","street":"ОРЛОВИЋЕВА","homeNo":"ББ","longitude":19.8212202,"latitude":45.0140269,"phone1":"+381 22471220","phone2":"+381 69701159","memo":"радни дан: 7-22\nвикенд: 7-22"},{"id":280,"type":"COVID_AMBULANCE","name":"ДОМ ЗДРАВЉА СВИЛАЈНАЦ","city":"СВИЛАЈНАЦ","street":"КРАЉА ПЕТРА И","homeNo":"47","longitude":21.1957025,"latitude":44.2293528,"phone1":"+381 35321260","phone2":"","memo":"радни дан: 0-24\nвикенд: 0-24"},{"id":281,"type":"COVID_AMBULANCE","name":"ДОМ ЗДРАВЉА ДР.ЉУБИНКО ЂОРЂЕВИЋ СВРЉИГ","city":"СВРЉИГ","street":"ХАДЗИЋЕВА","homeNo":"40","longitude":22.1183508,"latitude":43.4156072,"phone1":"+381 18821402","phone2":"","memo":"радни дан: 7-22\nвикенд: 7-22"},{"id":282,"type":"COVID_AMBULANCE","name":"ДОМ ЗДРАВЉА АЛЕКСИНАЦ","city":"СЕЛО ЖИТКОВАЦ","street":"ДРАГОЉУБА ВУЈИЋА","homeNo":"11","longitude":21.6947317,"latitude":43.5098733,"phone1":"+381 184100500","phone2":"+381 62268412","memo":"радни дан: 0-24\nвикенд: 0-24"},{"id":283,"type":"COVID_AMBULANCE","name":"ДОМ ЗДРАВЉА СЕНТА","city":"СЕНТА","street":"БОШКА ЈУГОВИЋА","homeNo":"6","longitude":20.0871791,"latitude":45.928618,"phone1":"+381 628066879","phone2":"+381 628066879","memo":"радни дан: 7-22\nвикенд: 7-22"},{"id":284,"type":"COVID_AMBULANCE","name":"ДОМ ЗДРАВЉА СЕЧАЊ","city":"СЕЧАЊ","street":"ПАРТИЗАНСКИ ПУТ","homeNo":"ББ","longitude":20.7728506,"latitude":45.3662336,"phone1":"+381 62215113","phone2":"","memo":"радни дан: 7-24\nвикенд: 0-24"},{"id":285,"type":"COVID_AMBULANCE","name":"ДОМ ЗДРАВЉА СЈЕНИЦА","city":"СЈЕНИЦА","street":"ТАДИЈЕ АНДРИЋА","homeNo":"10","longitude":19.9942428,"latitude":43.2752408,"phone1":"","phone2":"+381 648170579","memo":"радни дан: 7-22\nвикенд: 7-22"},{"id":286,"type":"COVID_AMBULANCE","name":"ДОМ ЗДРАВЉА СОКОБАЊА","city":"СОКОБАЊА","street":"МИТРОПОЛИТА МИХАИЛА","homeNo":"23","longitude":21.8692421,"latitude":43.6432809,"phone1":"+381 18830078","phone2":"","memo":"радни дан: 7-22\nвикенд: 7-22"},{"id":287,"type":"COVID_AMBULANCE","name":"ДОМ ЗДРАВЉА СРБОБРАН","city":"СРБОБРАН","street":"ЈОВАНА ПОПОВИЋА","homeNo":"25","longitude":19.7853032,"latitude":45.548798,"phone1":"+381 645933700","phone2":"","memo":"радни дан: 7-22\nвикенд: 7-22"},{"id":288,"type":"COVID_AMBULANCE","name":"ДОМ ЗДРАВЉА СРЕМСКА МИТРОВИЦА","city":"СРЕМСКА МИТРОВИЦА","street":"ПРОМЕНАДА","homeNo":"ББ","longitude":19.6034892,"latitude":44.9736611,"phone1":"","phone2":"+381 648770563","memo":"радни дан: 7-22\nвикенд: 7-22"},{"id":289,"type":"COVID_AMBULANCE","name":"ДОМ ЗДРАВЉА ДР ЈОВАН ЈОВАНОВИЋ ЗМАЈ","city":"СТАРА ПАЗОВА","street":"ВЛАДИМИРА ХУРБАНА","homeNo":"2","longitude":20.1580184,"latitude":44.98264,"phone1":"+381 22310284","phone2":"+381 62763493","memo":"радни дан: 7-19\nвикенд: 7-19"},{"id":290,"type":"COVID_AMBULANCE","name":"ДОМ ЗДРАВЉА СУБОТИЦА","city":"СУБОТИЦА","street":"ХАРАМБАШИЋЕВА","homeNo":"2","longitude":19.65934,"latitude":46.09774,"phone1":"+381 24546104","phone2":"+381 659185602","memo":"радни дан: 0-24\nвикенд: 0-24"},{"id":291,"type":"COVID_AMBULANCE","name":"ОПШТА БОЛНИЦА СУБОТИЦА","city":"СУБОТИЦА","street":"ИЗВОРСКА ","homeNo":"3","longitude":19.6712579,"latitude":46.0813506,"phone1":"+381 24555222","phone2":"","memo":"радни дан: 0-24\nвикенд: 0-24"},{"id":292,"type":"COVID_AMBULANCE","name":"ЗДРАВСТВЕНИ ЦЕНТАР СУРДУЛИЦА","city":"СУРДУЛИЦА","street":"СРПСКИХ ВЛАДАРА","homeNo":"111","longitude":22.1680948,"latitude":42.6845285,"phone1":"+381 62255863","phone2":"","memo":"радни дан: 7-22\nвикенд: 7-22"},{"id":293,"type":"COVID_AMBULANCE","name":"ДОМ ЗДРАВЉА ТЕМЕРИН","city":"ТЕМЕРИН","street":"НАРОДНОГ ФРОНТА","homeNo":"82","longitude":19.8928206,"latitude":45.4081991,"phone1":"+381 212102231","phone2":"","memo":"радни дан: 7-22\nвикенд: 7-22"},{"id":294,"type":"COVID_AMBULANCE","name":"ДОМ ЗДРАВЉА ТИТЕЛ","city":"ТИТЕЛ","street":"ГЛАВНА","homeNo":"22","longitude":20.3079191,"latitude":45.2043847,"phone1":"","phone2":"+381 648040337","memo":"радни дан: 7-22\nвикенд: 7-22"},{"id":296,"type":"COVID_AMBULANCE","name":"ДОМ ЗДРАВЉА ТУТИН","city":"ТУТИН","street":"БОГОЉУБА ЧУКИЋА","homeNo":"12","longitude":20.3391304,"latitude":42.9900354,"phone1":"+381 20811322","phone2":"","memo":"радни дан: 7-22\nвикенд: 7-22"},{"id":297,"type":"COVID_AMBULANCE","name":"ДОМ ЗДРАВЉА ЋУПРИЈА","city":"ЋУПРИЈА","street":"КНЕЗА МИЛОША","homeNo":"ББ","longitude":21.3716743,"latitude":43.9251233,"phone1":"+381 358471907","phone2":"+381 648959582","memo":"радни дан: 7-22\nвикенд: 7-22"},{"id":298,"type":"COVID_AMBULANCE","name":"ОПШТА БОЛНИЦА ЋУПРИЈА","city":"ЋУПРИЈА","street":"МИОДРАГА НОВАКОВИЋА","homeNo":"78","longitude":21.3761923,"latitude":43.9415736,"phone1":"+381 358470775","phone2":"","memo":"радни дан: 0-24\nвикенд: 0-24"},{"id":299,"type":"COVID_AMBULANCE","name":"ДОМ ЗДРАВЉА","city":"УБ","street":"ДОБРОСАВА СИМИЋА","homeNo":"1","longitude":20.0753919,"latitude":44.4577146,"phone1":"+381 14411165","phone2":"","memo":"радни дан: 7-22\nвикенд: 7-22"},{"id":300,"type":"COVID_AMBULANCE","name":"ДОМ ЗДРАВЉА КОСОВО ПОЉЕ","city":"УГЉАРЕ","street":"УГЉАРЕ","homeNo":"","longitude":21.1048999,"latitude":42.6282537,"phone1":"+381 3884426","phone2":"","memo":"радни дан: 0-24\nвикенд: 0-24"},{"id":301,"type":"COVID_AMBULANCE","name":"ДОМ ЗДРАВЉА УЖИЦЕ","city":"УЖИЦЕ","street":"КОСОВСКА","homeNo":"ББ","longitude":19.8403164,"latitude":43.8589197,"phone1":"","phone2":"+381 648170570","memo":"радни дан: 7-22\nвикенд: 7-22"},{"id":302,"type":"COVID_AMBULANCE","name":"ДОМ ЗДРАВЉА ЧАЈЕТИНА","city":"ЧАЈЕТИНА","street":"КРАЉА АЛЕКСАНДРА КАРАЂОРЂЕВИЋА","homeNo":"31","longitude":19.7157811,"latitude":43.749496,"phone1":"","phone2":"+381 648170574","memo":"радни дан: 7-22\nвикенд: 7-22"},{"id":303,"type":"COVID_AMBULANCE","name":"ДОМ ЗДРАВЉА ЧАЧАК","city":"ЧАЧАК","street":"ВЕСЕЛИНА МИЛИКИЦА","homeNo":"1","longitude":20.3439659,"latitude":43.8923903,"phone1":"+381 32325717","phone2":"","memo":"радни дан: 0-24\nвикенд: 0-24"},{"id":304,"type":"COVID_AMBULANCE","name":"ДОМ ЗДРАВЉА ЧАЧАК","city":"ЧАЧАК","street":"КНИЦАНИНОВА","homeNo":"3","longitude":20.3463735,"latitude":43.9012932,"phone1":"+381 32356993","phone2":"","memo":"радни дан: 7-22\nвикенд: 0-22"},{"id":305,"type":"COVID_AMBULANCE","name":"ДОМ ЗДРАВЉА ЧОКА","city":"ЧОКА","street":"СЕНЋАНСКА","homeNo":"3","longitude":20.1373867,"latitude":45.9418733,"phone1":"+381 230471066","phone2":"","memo":"радни дан: 0-24\nвикенд: 0-24"},{"id":306,"type":"COVID_AMBULANCE","name":"ДОМ ЗДРАВЉА \"ДР ДРАГА ЉОЧИЋ\" ШАБАЦ","city":"ШАБАЦ","street":"ПОПА КАРАНА","homeNo":"2","longitude":19.6949734,"latitude":44.7532472,"phone1":"+381 15363505","phone2":"","memo":"радни дан: 7-22\nвикенд: 7-22"},{"id":307,"type":"COVID_AMBULANCE","name":"ДОМ ЗДРАВЉА ШИД","city":"ШИД","street":"АЛЕКСЕ ШАНТИЋА","homeNo":"1","longitude":19.2224717,"latitude":45.1253594,"phone1":"","phone2":"+381 607124240","memo":"радни дан: 7-22\nвикенд: 7-22"},{"id":308,"type":"COVID_AMBULANCE","name":"ДОМ ЗДРАВЉА ШТРПЦЕ","city":"ШТРПЦЕ","street":"ШТРПЦЕ","homeNo":"","longitude":21.0168824,"latitude":42.2376223,"phone1":"+383 2970803","phone2":"","memo":"радни дан: 0-24\nвикенд: 0-24"}]}